id,name,uiName,lat,lng,disabled
a0cdb908-7cf9-4b3d-b750-e09f4f154ef5,seoul,Seoul,37.5326,127.024612,false
aa994394-aeee-4a86-9fe8-88185a20c593,incheon,Incheon,37.456257,126.705208,false
06beb501-b6e0-4017-ba22-6890855b005a,yeongjongdo,YeongJongDo,37.5000629,126.5358479,true
1a4e2baa-4954-4510-b9f7-fe504fb3c540,ulsan,Ulsan,35.549999,129.316666,false
7817484b-5fa2-4965-87d7-0e3d7c8c3abb,busan,Busan,35.166668,129.066666,false
b152efa3-b765-4cd3-a880-a4fd15f0b696,daegu,Daegu,35.866669,128.600006,false
ef7372f0-7952-40ab-9d0a-fd1b913ae772,jeju,Jeju Island,33.50972,126.52194,false